     3.04           OBSERVATION DATA    M (MIXED)           RINEX VERSION / TYPE
INITIAL_RINEX_VERSION: 3.02                                 COMMENT             
BINEX2RINEX  2.09   GSI_Japan           20210730 00:31:53UTCPGM / RUN BY / DATE 
gfzrnx-1.14-7865    FILE PROCESSING     20210730 122316 UTC COMMENT             
CCJ200JPN                                                   MARKER NAME         
21732M002                                                   MARKER NUMBER       
GSI                 Geospatial Information Authority of JapaOBSERVER / AGENCY   
5035K69995          TRIMBLE NETR9       5.45                REC # / TYPE / VERS 
5015353788          TRM59800.00     SCIS                    ANT # / TYPE        
        0.0000        0.0000        0.0000                  ANTENNA: DELTA H/E/N
 -4490605.4743  3483894.7071  2884928.1885                  APPROX POSITION XYZ 
E    8 C1X C5X D1X D5X L1X L5X S1X S5X                      SYS / # / OBS TYPES 
G   16 C1C C2W C2X C5X D1C D2W D2X D5X L1C L2W L2X L5X S1C  SYS / # / OBS TYPES 
       S2W S2X S5X                                          SYS / # / OBS TYPES 
J   16 C1C C1X C2X C5X D1C D1X D2X D5X L1C L1X L2X L5X S1C  SYS / # / OBS TYPES 
       S1X S2X S5X                                          SYS / # / OBS TYPES 
R   16 C1C C1P C2C C2P D1C D1P D2C D2P L1C L1P L2C L2P S1C  SYS / # / OBS TYPES 
       S1P S2C S2P                                          SYS / # / OBS TYPES 
GEODETIC                                                    MARKER TYPE         
G L1C                                                       SYS / PHASE SHIFT   
G L2X                                                       SYS / PHASE SHIFT   
G L2W                                                       SYS / PHASE SHIFT   
G L5X                                                       SYS / PHASE SHIFT   
R L1C                                                       SYS / PHASE SHIFT   
R L2C                                                       SYS / PHASE SHIFT   
R L1P                                                       SYS / PHASE SHIFT   
R L2P                                                       SYS / PHASE SHIFT   
J L1C                                                       SYS / PHASE SHIFT   
J L1X                                                       SYS / PHASE SHIFT   
J L1Z                                                       SYS / PHASE SHIFT   
J L2X                                                       SYS / PHASE SHIFT   
J L5X                                                       SYS / PHASE SHIFT   
E L1X                                                       SYS / PHASE SHIFT   
E L5X                                                       SYS / PHASE SHIFT   
 23 R01  1 R02 -4 R03  5 R04  6 R05  1 R06 -4 R07  5 R08  6 GLONASS SLOT / FRQ #
    R09 -2 R10 -7 R12 -1 R13 -2 R14 -7 R15  0 R16 -1 R17  4 GLONASS SLOT / FRQ #
    R18 -3 R19  3 R20  2 R21  4 R22 -3 R23  3 R24  2        GLONASS SLOT / FRQ #
                                                            GLONASS COD/PHS/BIS 
    18                                                      LEAP SECONDS        
smtt on  - smooth time tag (ms jumps in phase and range)    COMMENT             
GFZRNX.NUM_EPOCHS: 2880                                     COMMENT
    79                                                      # OF SATELLITES     
   E01   239   239   239   239   239   239   239   239      PRN / # OF OBS      
   E02  1187  1187  1187  1187  1187  1187  1187  1187      PRN / # OF OBS      
   E03   966   966   966   966   965   965   966   966      PRN / # OF OBS      
   E04   996   996   996   996   996   996   996   996      PRN / # OF OBS      
   E05  1180  1180  1180  1180  1179  1179  1180  1180      PRN / # OF OBS      
   E07   454   454   454   454   454   454   454   454      PRN / # OF OBS      
   E08   673   673   673   673   673   673   673   673      PRN / # OF OBS      
   E09  1164  1164  1164  1164  1164  1164  1164  1164      PRN / # OF OBS      
   E11  1090  1090  1090  1090  1089  1089  1090  1090      PRN / # OF OBS      
   E12   953   953   953   953   953   953   953   953      PRN / # OF OBS      
   E13   441   441   441   441   441   441   441   441      PRN / # OF OBS      
   E15   709   707   709   707   708   707   709   707      PRN / # OF OBS      
   E19   693   693   693   693   693   693   693   693      PRN / # OF OBS      
   E21    99    99    99    99    99    99    99    99      PRN / # OF OBS      
   E24  1276  1276  1276  1276  1276  1276  1276  1276      PRN / # OF OBS      
   E25  1082  1082  1082  1082  1081  1081  1082  1082      PRN / # OF OBS      
   E26   274   274   274   274   273   273   274   274      PRN / # OF OBS      
   E27   546   546   546   546   546   546   546   546      PRN / # OF OBS      
   E30  1100  1100  1100  1100  1100  1100  1100  1100      PRN / # OF OBS      
   E31   999   999   999   999   999   999   999   999      PRN / # OF OBS      
   E33   652   652   652   652   651   651   652   652      PRN / # OF OBS      
   E36  1223  1223  1223  1223  1223  1223  1223  1223      PRN / # OF OBS      
   G01   854   853   854   854   854   853   854   854   846PRN / # OF OBS      
         845   846   846   854   853   854   854            PRN / # OF OBS      
   G02   804   794               804   794               790PRN / # OF OBS      
         785               804   794                        PRN / # OF OBS      
   G03   682   682   682   682   682   682   682   682   658PRN / # OF OBS      
         658   658   658   682   682   682   682            PRN / # OF OBS      
   G04   921   911   920   921   921   911   920   921   903PRN / # OF OBS      
         894   902   903   921   911   920   921            PRN / # OF OBS      
   G05   896   895   896         896   895   896         894PRN / # OF OBS      
         893   894         896   895   896                  PRN / # OF OBS      
   G06   902   900   902   902   902   900   902   902   885PRN / # OF OBS      
         884   885   885   902   900   902   902            PRN / # OF OBS      
   G07   937   927   916         937   927   916         923PRN / # OF OBS      
         917   912         937   927   916                  PRN / # OF OBS      
   G08   957   957   957   957   957   957   957   957   953PRN / # OF OBS      
         953   953   953   957   957   957   957            PRN / # OF OBS      
   G09   846   836   846   846   846   836   846   846   809PRN / # OF OBS      
         803   809   809   846   836   846   846            PRN / # OF OBS      
   G10   868   856   868   868   868   856   868   868   852PRN / # OF OBS      
         845   852   852   868   856   868   868            PRN / # OF OBS      
   G12   699   693   682         699   693   682         680PRN / # OF OBS      
         676   669         699   693   682                  PRN / # OF OBS      
   G13   902   873               902   873               891PRN / # OF OBS      
         866               902   873                        PRN / # OF OBS      
   G14   848   821   846   848   848   821   846   848   828PRN / # OF OBS      
         810   827   828   848   821   846   848            PRN / # OF OBS      
   G15   945   943   945         945   943   945         940PRN / # OF OBS      
         940   940         945   943   945                  PRN / # OF OBS      
   G16   949   945               949   945               931PRN / # OF OBS      
         929               949   945                        PRN / # OF OBS      
   G17   799   794   798         799   794   798         785PRN / # OF OBS      
         781   784         799   794   798                  PRN / # OF OBS      
   G18   925   906   922   925   925   906   922   925   917PRN / # OF OBS      
         903   914   917   925   906   922   925            PRN / # OF OBS      
   G19   672   644               672   644               651PRN / # OF OBS      
         634               672   644                        PRN / # OF OBS      
   G20   947   942               947   942               939PRN / # OF OBS      
         936               947   942                        PRN / # OF OBS      
   G21   870   850               870   850               867PRN / # OF OBS      
         848               870   850                        PRN / # OF OBS      
   G22   716   685               716   685               697PRN / # OF OBS      
         679               716   685                        PRN / # OF OBS      
   G23   632   604   628   631   632   604   628   631   614PRN / # OF OBS      
         595   612   614   632   604   628   631            PRN / # OF OBS      
   G24   873   873   873   873   873   873   873   873   859PRN / # OF OBS      
         859   859   859   873   873   873   873            PRN / # OF OBS      
   G25   732   717   731   732   732   717   731   732   721PRN / # OF OBS      
         711   721   721   732   717   731   732            PRN / # OF OBS      
   G26   952   950   952   952   952   950   952   952   947PRN / # OF OBS      
         947   947   947   952   950   952   952            PRN / # OF OBS      
   G27   926   911   926   926   926   911   926   926   922PRN / # OF OBS      
         907   922   922   926   911   926   926            PRN / # OF OBS      
   G29   901   892   897         901   892   897         885PRN / # OF OBS      
         878   882         901   892   897                  PRN / # OF OBS      
   G30   964   946   961   964   964   946   961   964   944PRN / # OF OBS      
         928   941   944   964   946   961   964            PRN / # OF OBS      
   G31   894   893   894         894   893   894         888PRN / # OF OBS      
         887   888         894   893   894                  PRN / # OF OBS      
   G32   764   757   751   763   764   757   751   763   754PRN / # OF OBS      
         747   741   753   764   757   751   763            PRN / # OF OBS      
   J01  2880  2880  2880  2880  2880  2880  2880  2880  2755PRN / # OF OBS      
        2755  2755  2755  2880  2880  2880  2880            PRN / # OF OBS      
   J02  2880  2880  2880  2880  2880  2880  2880  2880  2854PRN / # OF OBS      
        2854  2854  2854  2880  2880  2880  2880            PRN / # OF OBS      
   J03  2880  2880  2880  2880  2880  2880  2880  2880  2867PRN / # OF OBS      
        2867  2867  2867  2880  2880  2880  2880            PRN / # OF OBS      
   J07  2880  2880  2880  2880  2879  2879  2878  2878  2880PRN / # OF OBS      
        2880  2880  2880  2880  2880  2880  2880            PRN / # OF OBS      
   R01   810   810   805   808   810   810   805   808   810PRN / # OF OBS      
         810   805   806   810   810   805   808            PRN / # OF OBS      
   R02   886   886   885   886   886   886   885   886   886PRN / # OF OBS      
         886   885   886   886   886   885   886            PRN / # OF OBS      
   R03   818   818   815   818   818   818   815   818   818PRN / # OF OBS      
         818   815   818   818   818   815   818            PRN / # OF OBS      
   R04   608   606   598   600   608   606   598   600   608PRN / # OF OBS      
         606   598   599   608   606   598   600            PRN / # OF OBS      
   R05   771   770   749   763   771   770   749   763   771PRN / # OF OBS      
         769   749   762   771   770   749   763            PRN / # OF OBS      
   R06   928   923               928   923               928PRN / # OF OBS      
         923               928   923                        PRN / # OF OBS      
   R07   942   940   936   939   942   940   936   939   942PRN / # OF OBS      
         940   935   938   942   940   936   939            PRN / # OF OBS      
   R08   694   690   688   690   694   690   688   690   692PRN / # OF OBS      
         687   686   688   694   690   688   690            PRN / # OF OBS      
   R09   827   827   827   827   827   827   827   827   827PRN / # OF OBS      
         827   827   827   827   827   827   827            PRN / # OF OBS      
   R10   800   790               800   790               800PRN / # OF OBS      
         789               800   790                        PRN / # OF OBS      
   R12   950   949   930   944   950   949   930   944   949PRN / # OF OBS      
         947   929   943   950   949   930   944            PRN / # OF OBS      
   R13   495   492   495   495   495   492   495   495   495PRN / # OF OBS      
         492   494   495   495   492   495   495            PRN / # OF OBS      
   R14   652   652   648   650   652   652   648   650   652PRN / # OF OBS      
         652   648   649   652   652   648   650            PRN / # OF OBS      
   R15   825   825   824   824   825   825   824   824   825PRN / # OF OBS      
         825   824   824   825   825   824   824            PRN / # OF OBS      
   R16   881   881   879   880   881   881   879   880   881PRN / # OF OBS      
         881   879   880   881   881   879   880            PRN / # OF OBS      
   R17   816   816   809   813   816   816   809   813   816PRN / # OF OBS      
         816   809   813   816   816   809   813            PRN / # OF OBS      
   R18   794   790   793   793   794   790   793   793   794PRN / # OF OBS      
         790   792   792   794   790   793   793            PRN / # OF OBS      
   R19   461   460   461   461   461   460   461   461   461PRN / # OF OBS      
         460   461   461   461   460   461   461            PRN / # OF OBS      
   R20   653   645   653   653   653   645   653   653   653PRN / # OF OBS      
         645   653   653   653   645   653   653            PRN / # OF OBS      
   R21  1113  1113  1113  1113  1113  1113  1113  1113  1113PRN / # OF OBS      
        1113  1113  1113  1113  1113  1113  1113            PRN / # OF OBS      
   R22   946   940   714   927   946   940   714   927   944PRN / # OF OBS      
         939   714   924   946   940   714   927            PRN / # OF OBS      
   R23   587   585               587   585               586PRN / # OF OBS      
         584               587   585                        PRN / # OF OBS      
   R24   592   589   569   582   592   589   569   582   592PRN / # OF OBS      
         589   569   582   592   589   569   582            PRN / # OF OBS      
    30.000                                                  INTERVAL            
  2021     7    29     0     0    0.0000000     GPS         TIME OF FIRST OBS   
  2021     7    29    23    59   30.0000000     GPS         TIME OF LAST OBS    
                                                            END OF HEADER      
> 2021 07 29 00 00 00.0000000  0 25
E01  24700777.625    24700783.070       -2117.145       -1580.984   129803476.624 8  96931196.605 8        49.100          51.000
E12  23954242.305    23954244.543        1055.207         787.980   125880401.344 6  94001619.093 7        41.700          43.800
E26  25684649.156    25684656.578       -1900.535       -1419.230   134973719.810 7 100792080.814 7        43.700          44.300
E31  23998554.000    23998560.363         639.344         477.430   126113256.374 8  94175509.372 8        50.100          51.800
E33  24044988.609    24044992.723        -711.141        -531.047   126357261.873 8  94357704.994 8        48.600          51.700
G01  20117250.477    20117258.4384   20117257.895    20117258.070        -834.078        -649.9344       -649.934        -622.852   105716883.900 8  82376818.98849  82376812.982 8  78944446.917 9        49.500          54.2004         49.800          54.700
G03  21328198.688    21328206.1644   21328206.469    21328208.367        2421.961        1887.2424       1887.242        1808.605   112080444.066 7  87335474.60048  87335467.603 7  83696499.343 8        47.300          49.6004         46.900          52.000
G07  23072953.875    23072959.0554   23072958.809                       -2247.367       -1751.1954      -1751.195                   121249222.469 6  94479896.22045  94479970.251 6                        40.300          35.9004         37.400
G08  22205726.375    22205733.6804   22205734.434    22205734.543       -1240.727        -966.8014       -966.801        -926.516   116691828.278 7  90928744.15545  90928744.172 7  87140046.950 8        46.400          33.5004         44.500          50.000
G14  22747511.734    22747517.1024   22747517.352    22747522.359        2961.941        2308.0044       2308.004        2211.840   119539039.465 6  93147278.87144  93147290.854 7  89266158.924 7        41.200          28.7004         42.800          46.800
G17  24364036.250    24364042.5784   24364042.035                        1936.727        1509.1374       1509.137                   128033858.987 5  99766680.38944  99766680.413 5                        33.300          27.4004         35.700
G21  21750551.078    21750555.4224                                      -2033.195       -1584.3094                                  114299899.045 7  89064862.06946                                        47.300          37.9004
G22  20802406.836    20802410.1374                                        589.344         459.2274                                  109317402.622 7  85182425.67646                                        47.900          41.6004
G27  24561884.711    24561893.8874   24561893.625    24561895.762       -2083.504       -1623.5084      -1623.508       -1555.863   129073510.790 5 100576787.47043 100576785.483 6  96386085.564 7        35.900          19.9004         37.700          42.700
G30  23439481.211    23439490.1764   23439489.703    23439490.855        -963.430        -750.7274       -750.727        -719.445   123175334.522 6  95980790.58245  95980789.557 6  91981590.422 7        39.200          34.9004         41.200          45.800
J01  36749456.945    36749457.137    36749461.785    36749467.531         423.746         423.746         330.191         316.434   193119719.109 6 193119733.093 6 150482920.613 6 144212801.399 7        37.600          41.400          38.700          44.200
J02  36575744.195    36575744.094    36575748.949    36575753.141         467.152         467.152         364.012         348.848   192206834.978 7 192206829.983 8 149771662.730 8 143531096.366 8        47.500          51.300          51.000          53.000
J03  39105046.625    39105046.895    39105050.617    39105055.711        -261.297        -261.297        -203.609        -195.125   205498415.595 8 205498417.599 8 160128661.531 8 153456635.602 8        48.900          51.500          50.500          53.000
J07  36825022.242    36825021.680    36825025.719    36825030.844            .871            .871            .680            .652   193516814.456 6 193516805.448 7 150792337.629 8 144509333.856 8        40.200          44.200          48.300          52.500
R05  22150492.672    22150492.020    22150497.516    22150497.203         668.352         668.352         519.828         519.828   118407107.359 7 118407084.369 7  92094411.420 6  92094432.416 6        46.800          45.500          41.800          41.000
R06  22453671.992    22453670.398                                        3441.621        3441.621                                   119817114.162 5 119817318.162 5                                        35.400          34.300
R09  23600974.242    23600973.512    23600980.410    23600979.770       -4400.129       -4400.129       -3422.324       -3422.324   126027872.931 6 126027879.909 6  98021610.570 6  98021644.590 6        39.200          38.200          38.000          37.500
R10  20484727.219    20484726.301                                       -2919.793       -2919.793                                   109195123.581 8 109195118.590 8                                        50.100          48.300
R20  21905910.031    21905909.148    21905915.852    21905915.695       -1865.707       -1865.707       -1451.105       -1451.105   117140725.899 5 117140874.897 5  91109469.993 6  91109465.996 6        33.500          31.800          41.300          41.500
R21  21069770.563    21069770.035    21069774.691    21069774.652         253.258         253.258         196.980         196.980   112748633.810 8 112748619.820 8  87693385.062 7  87693418.067 7        50.700          49.500          46.300          46.000
> 2021 07 29 00 00 30.0000000  0 25
E01  24712891.938    24712897.781       -2126.996       -1588.340   129867139.251 8  96978736.874 8        49.300          50.600
E12  23948234.094    23948237.086        1049.836         783.969   125848827.243 7  93978041.029 7        42.600          44.400
E26  25695494.188    25695502.129       -1898.719       -1417.875   135030711.054 7 100834639.179 7        43.600          44.900
E31  23994942.227    23994948.207         626.102         467.543   126094275.716 8  94161335.496 8        50.300          51.700
E33  24049058.031    24049061.809        -714.348        -533.441   126378646.454 8  94373674.003 8        48.300          52.200
G01  20122046.391    20122054.2544   20122053.645    20122054.102        -845.965        -659.1954       -659.195        -631.727   105742086.906 8  82396457.68949  82396451.692 8  78963267.337 9        50.100          54.3004         50.000          54.800
G03  21314413.664    21314420.8674   21314421.023    21314423.031        2407.668        1876.1054       1876.105        1797.934   112008001.185 7  87279025.61548  87279018.609 7  83642402.397 8        47.300          50.0004         47.200          52.200
G07  23085800.586    23085804.5124   23085805.008                       -2252.812       -1755.4384      -1755.438                   121316727.423 6  94532497.46946  94532571.456 6                        40.900          36.6004         37.200
G08  22212824.078    22212832.5274   22212832.762    22212832.707       -1245.840        -970.7814       -970.781        -930.332   116729128.668 7  90957809.39045  90957809.404 7  87167901.116 8        44.900          33.8004         45.500          49.700
G14  22730627.539    22730632.4574   22730632.480    22730637.469        2953.371        2301.3284       2301.328        2205.438   119450310.254 6  93078139.23244  93078151.215 7  89199900.113 7        41.900          29.2004         42.500          46.400
G17  24352974.164    24352979.7194   24352979.691                        1938.621        1510.6134       1510.613                   127975726.189 5  99721382.14344  99721382.123 6                        34.300          29.6004         36.600
G21  21762165.984    21762170.0084                                      -2035.750       -1586.3014                                  114360934.274 7  89112421.97446                                        47.000          36.7004
G22  20799096.773    20799099.8524                                        570.445         444.5044                                  109300006.994 8  85168870.65446                                        48.700          41.0004
G27  24573787.805    24573797.7814   24573796.832    24573798.363       -2086.555       -1625.8874      -1625.887       -1558.141   129136062.422 5 100625528.93443 100625526.921 6  96432796.147 7        35.500          20.6004         37.000          42.000
G30  23445018.805    23445027.1334   23445026.285    23445028.223        -976.332        -760.7774       -760.777        -729.078   123204431.557 6  96003463.59345  96003462.580 6  92003318.732 7        39.400          35.6004         40.600          46.500
J01  36747039.031    36747040.047    36747044.359    36747049.734         423.293         423.293         329.840         316.094   193107013.846 6 193107027.840 6 150473020.440 6 144203313.699 7        38.400          41.600          39.000          44.300
J02  36573085.766    36573085.539    36573090.090    36573094.289         464.422         464.422         361.887         346.809   192192863.375 7 192192858.380 8 149760775.767 8 143520663.019 8        47.500          51.400          50.700          53.300
J03  39106529.797    39106530.090    39106534.031    39106538.848        -258.188        -258.188        -201.184        -192.801   205506209.600 7 205506211.611 8 160134734.776 8 153462455.804 8        47.900          51.200          50.500          53.400
J07  36825017.461    36825016.945    36825021.133    36825026.234           1.031           1.031            .805            .770   193516789.540 6 193516780.539 7 150792318.225 7 144509315.249 8        39.900          44.200          47.800          52.000
R05  22146804.195    22146804.191    22146809.973    22146809.086         646.008         646.008         502.449         502.449   118387394.528 7 118387371.540 7  92079079.218 6  92079100.209 6        47.200          45.600          41.200          41.500
R06  22434337.531    22434333.926                                        3436.656        3436.656                                   119713939.871 5 119714143.871 5                                        34.200          33.100
R09  23625693.586    23625692.270    23625698.922    23625697.750       -4399.242       -4399.242       -3421.633       -3421.633   126159869.057 6 126159876.062 6  98124274.148 6  98124308.137 5        38.800          38.100          36.000          35.600
R10  20501210.711    20501208.926                                       -2937.742       -2937.742                                   109282989.356 8 109282984.372 7                                        48.800          47.800
R20  21916369.352    21916370.551    21916376.172    21916376.270       -1863.621       -1863.621       -1449.484       -1449.484   117196661.965 5 117196810.995 5  91152975.790 6  91152971.771 6        33.900          32.300          40.400          41.500
R21  21068361.945    21068360.598    21068364.953    21068365.484         249.496         249.496         194.051         194.051   112741094.409 8 112741080.417 8  87687521.088 7  87687554.085 7        49.800          48.600          46.400          45.500
> 2021 07 29 00 01 00.0000000  0 25
E01  24725062.586    24725068.320       -2136.867       -1595.711   129931096.034 8  97026496.785 8        49.100          50.700
E12  23942256.195    23942259.090        1044.305         779.840   125817416.088 7  93954584.681 7        42.100          44.000
E26  25706328.898    25706336.566       -1897.059       -1416.633   135087648.199 7 100877157.138 7        43.300          44.800
E31  23991405.836    23991411.863         612.680         457.520   126075692.753 8  94147458.590 8        50.200          51.200
E33  24053144.773    24053148.816        -717.551        -535.832   126400124.070 8  94389712.481 8        48.500          51.500
G01  20126910.484    20126918.2194   20126918.156    20126917.980        -858.098        -668.6484       -668.648        -640.785   105767647.654 8  82416375.14948  82416369.160 8  78982354.913 9        49.300          53.9004         50.000          54.500
G03  21300709.383    21300717.1804   21300717.234    21300719.301        2393.137        1864.7814       1864.781        1787.082   111935987.208 7  87222910.83548  87222903.831 7  83588625.750 8        47.500          50.0004         47.300          52.200
G07  23098675.844    23098681.8954   23098681.340                       -2258.262       -1759.6884      -1759.688                   121384392.514 6  94585223.47145  94585297.464 6                        41.200          35.6004         38.400
G08  22219950.469    22219959.1764   22219959.176    22219959.848       -1250.984        -974.7934       -974.793        -934.176   116766579.546 7  90986991.85945  90986991.858 7  87195867.656 8        44.300          33.5004         44.900          49.900
G14  22713792.148    22713796.7034   22713796.172    22713801.898        2944.582        2294.4804       2294.480        2198.879   119361837.886 6  93009199.73144  93009211.731 7  89133833.097 7        41.800          29.7004         42.700          47.400
G17  24341897.656    24341903.8674   24341903.695                        1941.137        1512.5744       1512.574                   127917521.944 5  99676028.19144  99676028.180 6                        34.500          29.7004         36.600
G21  21773794.539    21773798.8244                                      -2038.367       -1588.3364                                  114422043.813 7  89160039.78346                                        46.700          37.4004
G22  20795894.086    20795897.2734                                        551.449         429.6994                                  109283177.894 8  85155757.06746                                        48.300          41.4004
G27  24585709.523    24585718.8444   24585718.543    24585718.969       -2089.969       -1628.5474      -1628.547       -1560.691   129198707.989 5 100674343.57443 100674341.558 6  96479576.866 7        35.500          20.4004         38.100          42.600
G30  23450629.414    23450637.1024   23450637.234    23450638.367        -989.387        -770.9494       -770.949        -738.828   123233913.459 6  96026436.49345  96026435.480 6  92025334.407 7        40.200          35.6004         41.100          46.800
J01  36744623.469    36744623.883    36744628.395    36744634.047         422.785         422.785         329.445         315.719   193094319.258 6 193094333.232 6 150463128.539 6 144193833.957 7        39.400          41.800          39.400          44.500
J02  36570442.453    36570442.371    36570447.105    36570451.250         461.523         461.523         359.629         344.645   192178974.064 7 192178969.060 8 149749952.917 8 143510291.122 8        47.600          51.300          49.900          53.200
J03  39107995.188    39107995.449    39107999.574    39108004.434        -255.328        -255.328        -198.957        -190.668   205513911.244 8 205513913.246 8 160140736.057 8 153468207.028 8        48.400          51.200          50.500          53.100
J07  36825012.555    36825011.672    36825015.980    36825021.094            .812            .812            .633            .609   193516763.194 6 193516754.188 7 150792297.683 8 144509295.586 8        39.900          44.400          48.200          52.300
R05  22143242.773    22143242.605    22143247.418    22143247.664         623.371         623.371         484.844         484.844   118368352.018 7 118368329.014 7  92064268.391 6  92064289.374 6        47.100          45.600          41.700          41.400
R06  22415030.156    22415028.492                                        3431.551        3431.551                                   119610916.343 5 119611120.374 5                                        35.400          33.800
R09  23650406.734    23650406.035    23650412.156    23650411.742       -4398.566       -4398.566       -3421.109       -3421.109   126291837.822 6 126291844.816 6  98226916.299 5  98226950.333 5        37.500          36.800          35.100          33.800
R10  20517795.359    20517793.180                                       -2955.773       -2955.773                                   109371391.842 8 109371386.836 7                                        49.100          47.800
R20  21926821.664    21926819.727    21926825.660    21926825.914       -1861.645       -1861.645       -1447.945       -1447.945   117252541.552 5 117252690.573 5  91196437.662 6  91196433.658 6        31.600          31.000          40.900          41.100
R21  21066973.391    21066972.930    21066977.484    21066977.664         245.562         245.562         190.992         190.992   112733667.837 8 112733653.854 8  87681744.871 7  87681777.867 7        50.700          49.200          46.500          46.000
> 2021 07 29 00 01 30.0000000  0 25
E01  24737289.313    24737295.313       -2146.703       -1603.055   129995348.137 8  97074477.224 8        49.600          50.800
E12  23936310.078    23936313.484        1038.816         775.738   125786169.748 7  93931251.378 7        42.000          44.300
E26  25717153.953    25717161.789       -1895.262       -1415.293   135144533.140 7 100919636.105 7        43.300          44.700
E31  23987946.148    23987952.395         599.289         447.523   126057510.750 8  94133881.126 8        50.400          51.800
E33  24057249.750    24057254.328        -720.730        -538.207   126421696.124 8  94405821.459 8        48.200          51.600
G01  20131842.422    20131850.3714   20131850.184    20131850.484        -870.016        -677.9344       -677.934        -649.688   105793566.631 8  82436571.75348  82436565.748 8  79001709.977 9        48.900          53.8004         49.700          54.700
G03  21287087.922    21287095.9734   21287096.148    21287098.195        2378.621        1853.4734       1853.473        1776.242   111864407.269 7  87167134.27648  87167127.271 7  83535173.198 8        47.100          50.0004         47.800          52.400
G07  23111582.703    23111588.3164   23111588.004                       -2263.547       -1763.8054      -1763.805                   121452216.943 6  94638073.64246  94638147.647 6                        40.700          36.0004         38.300
G08  22227106.984    22227114.9574   22227115.109    22227115.539       -1256.137        -978.8054       -978.805        -938.023   116804183.895 7  91016293.93645  91016293.939 7  87223948.788 8        44.500          33.7004         45.100          50.000
G14  22697005.789    22697011.2344   22697010.703    22697016.016        2935.832        2287.6604       2287.660        2192.344   119273627.560 6  92940464.42744  92940476.416 7  89067961.759 7        41.600          28.9004         43.000          47.300
G17  24330809.242    24330814.3634   24330814.395                        1943.453        1514.3794       1514.379                   127859248.384 5  99630620.26644  99630620.259 5                        33.600          28.2004         35.900
G21  21785437.453    21785442.2934                                      -2040.777       -1590.2194                                  114483228.651 7  89207716.25846                                        47.000          37.4004
G22  20792800.266    20792803.3634                                        532.375         414.8404                                  109266918.711 8  85143087.59046                                        48.000          41.7004
G27  24597649.031    24597657.8754   24597657.500    24597658.988       -2093.020       -1630.9264      -1630.926       -1562.969   129261450.433 6 100723233.77643 100723231.807 6  96526429.931 7        36.400          19.6004         37.400          42.800
G30  23456313.086    23456320.4144   23456320.668    23456322.395       -1001.949        -780.7424       -780.742        -748.211   123263780.426 6  96049709.44345  96049708.435 6  92047637.682 7        40.000          34.9004         39.500          47.000
J01  36742210.328    36742210.820    36742215.781    36742221.086         422.473         422.473         329.199         315.484   193081638.184 6 193081652.149 7 150453247.189 6 144184364.342 7        37.900          42.000          39.200          45.400
J02  36567815.734    36567815.590    36567820.125    36567824.391         458.684         458.684         357.418         342.523   192165169.644 8 192165164.643 8 149739196.218 8 143499982.615 8        48.600          51.300          50.000          53.200
J03  39109443.680    39109443.957    39109447.859    39109452.934        -252.223        -252.223        -196.539        -188.348   205521522.912 8 205521524.927 8 160146667.237 8 153473891.075 8        49.000          51.200          50.800          53.000
J07  36825007.055    36825007.059    36825011.238    36825016.457            .719            .719            .562            .539   193516738.022 6 193516729.018 7 150792278.057 8 144509276.776 8        40.000          44.100          48.300          52.300
R05  22139806.422    22139805.246    22139811.891    22139811.547         600.863         600.863         467.340         467.340   118349984.423 7 118349961.428 7  92049982.510 7  92050003.512 6        45.800          45.600          42.000          41.400
R06  22395752.875    22395752.402                                        3426.203        3426.203                                   119508050.411 6 119508254.415 5                                        36.400          35.400
R09  23675115.469    23675114.195    23675120.637    23675119.039       -4397.500       -4397.500       -3420.277       -3420.277   126423777.953 6 126423784.976 6  98329536.393 5  98329570.363 5        38.300          37.800          32.600          33.600
R10  20534479.945    20534478.070                                       -2973.535       -2973.535                                   109460329.913 8 109460324.907 8                                        49.400          48.000
R20  21937259.898    21937259.391    21937265.441    21937265.484       -1859.938       -1859.938       -1446.617       -1446.617   117308366.873 5 117308515.890 5  91239857.321 6  91239853.302 6        33.000          30.800          40.800          39.900
R21  21065607.594    21065606.438    21065610.680    21065611.309         241.793         241.793         188.062         188.062   112726355.332 8 112726341.340 8  87676057.335 7  87676090.354 7        51.000          49.600          46.100          46.200
> 2021 07 29 00 02 00.0000000  0 25
E01  24749571.977    24749577.633       -2156.293       -1610.219   130059892.505 8  97122675.934 8        49.000          50.800
E12  23930395.375    23930398.617        1033.469         771.746   125755085.821 7  93908039.368 7        42.100          44.000
E26  25727968.688    25727976.727       -1893.414       -1413.910   135201363.639 7 100962074.389 7        43.100          44.400
E31  23984562.195    23984568.395         586.090         437.664   126039728.857 8  94120602.437 8        50.300          51.800
E33  24061372.344    24061376.477        -723.613        -540.359   126443359.683 8  94421998.785 8        48.200          52.000
G01  20136842.578    20136850.3054   20136849.641    20136849.922        -881.699        -687.0394       -687.039        -658.410   105819840.174 8  82457044.65149  82457038.647 8  79021329.836 9        48.900          54.0004         50.000          54.600
G03  21273549.914    21273557.5044   21273557.340    21273559.637        2364.289        1842.3014       1842.301        1765.539   111793262.356 7  87111696.69448  87111689.696 7  83482045.534 8        47.100          50.0004         47.800          52.500
G07  23124519.180    23124524.0124   23124523.539                       -2268.578       -1767.7234      -1767.723                   121520195.941 6  94691044.25845  94691118.271 6                        40.600          35.7004         37.900
G08  22234290.820    22234299.3204   22234299.934    22234300.180       -1261.070        -982.6524       -982.652        -941.707   116841940.334 7  91045714.51045  91045714.520 7  87252143.516 8        45.500          33.6004         44.600          49.800
G14  22680269.781    22680275.2664   22680275.148    22680280.637        2927.160        2280.9024       2280.902        2185.867   119185680.229 6  92871934.08144  92871946.070 7  89002286.853 8        40.500          28.0004         42.600          48.000
G17  24319705.352    24319712.0984   24319711.113                        1946.480        1516.7384       1516.738                                                                                          33.100          27.7004         35.200
G21  21797094.484    21797099.0474                                      -2043.043       -1591.9804                                  114544485.313 7  89255448.70546                                        46.500          36.9004
G22  20789814.258    20789817.3134                                        513.500         400.1334                                  109251228.417 8  85130861.39446                                        48.500          41.2004
G27  24609606.250    24609615.8594   24609615.750    24609616.734       -2096.199       -1633.4024      -1633.402       -1565.344   129324288.512 5 100772198.43943 100772196.466 6  96573354.364 7        35.600          19.6004         37.900          42.300
G30  23462068.375    23462076.0394   23462076.199    23462077.797       -1014.500        -790.5204       -790.520        -757.582   123294028.634 6  96073279.43545  96073278.470 6  92070225.623 7        39.700          34.2004         39.900          46.000
J01  36739799.672    36739800.020    36739804.496    36739810.508         422.129         422.129         328.934         315.227   193068969.264 6 193068983.273 7 150443375.329 6 144174903.818 7        38.500          42.100          40.200          44.900
J02  36565204.344    36565204.422    36565209.203    36565213.484         456.000         456.000         355.324         340.520   192151448.565 7 192151443.566 8 149728504.459 8 143489736.349 8        47.300          51.300          50.200          53.200
J03  39110874.625    39110874.984    39110878.852    39110883.918        -249.109        -249.109        -194.113        -186.023   205529042.910 8 205529044.908 8 160152526.970 8 153479506.647 8        48.400          51.500          50.200          52.900
J07  36825002.141    36825002.434    36825006.414    36825011.395            .734            .734            .570            .547   193516712.250 6 193516703.250 7 150792257.984 8 144509257.521 8        40.100          44.200          48.200          52.500
R05  22136497.211    22136497.133    22136502.664    22136502.051         578.453         578.453         449.906         449.906   118332291.749 8 118332268.747 7  92036221.542 7  92036242.552 6        48.000          46.700          42.600          41.700
R06  22376506.031    22376503.570                                        3420.801        3420.801                                   119405344.739 5 119405548.757 5                                        34.400          33.700
R09  23699817.258    23699817.961    23699822.879    23699821.621       -4396.215       -4396.215       -3419.277       -3419.277   126555683.990 6 126555690.994 6  98432129.790 6  98432163.817 5        38.200          36.000          36.200          35.300
R10  20551263.820    20551262.559                                       -2991.020       -2991.020                                   109549797.921 8 109549792.908 8                                        49.600          48.400
R20  21947689.711    21947688.910    21947695.570    21947694.352       -1858.047       -1858.047       -1445.148       -1445.148   117364135.786 5 117364284.800 5  91283233.093 6  91283229.097 6        32.300          31.100          40.500          40.400
R21  21064262.156    21064260.863    21064265.199    21064265.277         238.277         238.277         185.328         185.328   112719153.495 8 112719139.505 8  87670455.923 7  87670488.926 7        50.200          49.100          45.800          45.500
> 2021 07 29 00 02 30.0000000  0 25
E01  24761909.422    24761915.316       -2166.211       -1617.625   130124728.163 8  97171092.159 8        48.900          50.900
E12  23924510.953    23924513.918        1027.750         767.477   125724163.864 7  93884948.310 7        42.400          44.600
E26  25738772.453    25738780.348       -1891.891       -1412.773   135258139.436 7 101004471.876 7        43.300          44.400
E31  23981254.570    23981260.789         572.418         427.453   126022348.173 8  94107623.350 8        49.800          51.900
E33  24065512.031    24065516.086        -726.809        -542.746   126465114.034 8  94438243.925 8        48.500          51.100
G01  20141909.125    20141917.2114   20141916.617    20141916.754        -893.645        -696.3444       -696.344        -667.332   105846466.682 8  82477792.57949  82477786.581 8  79041213.266 9        48.800          54.0004         49.500          54.500
G03  21260094.898    21260102.2074   21260102.570    21260104.613        2349.375        1830.6804       1830.680        1754.402   111722555.531 7  87056600.48848  87056593.476 7  83429245.004 8        47.200          49.8004         47.500          52.700
G07  23137482.977    23137489.0864   23137488.805                       -2273.645       -1771.6684      -1771.668                   121588326.923 6  94744133.31345  94744207.324 6                        39.500          35.2004         37.300
G08  22241505.938    22241513.4804   22241513.938    22241514.371       -1266.430        -986.8284       -986.828        -945.711   116879850.729 7  91075255.06245  91075255.087 7  87280453.226 8        45.000          33.6004         44.400          49.900
G14  22663584.781    22663589.8134   22663589.727    22663595.355        2918.035        2273.7974       2273.797        2179.055   119097998.791 6  92803610.90444  92803622.899 7  88936810.490 8        41.700          29.0004         43.000          48.500
G17  24308590.203    24308595.2194   24308594.605                        1948.152        1518.0434       1518.043                   127742488.323 5  99539638.50044  99539638.499 5                        34.500          29.1004         34.500
G21  21808764.117    21808768.6564                                      -2045.543       -1593.9304                                  114605812.140 7  89303235.81646                                        47.000          36.9004
G22  20786937.313    20786940.2894                                        494.223         385.1094                                  109236108.130 7  85119079.35046                                        47.500          41.6004
G27  24621582.688    24621592.5314   24621591.578    24621593.254       -2099.473       -1635.9534      -1635.953       -1567.789   129387222.932 5 100821238.15843 100821236.200 6  96620350.801 7        34.800          19.6004         38.500          42.400
G30  23467896.820    23467905.1094   23467904.809    23467906.363       -1027.285        -800.4804       -800.480        -767.129   123324656.269 6  96097145.13845  96097144.128 6  92093096.872 7        38.700          34.5004         40.400          46.500
J01  36737391.117    36737391.227    36737396.793    36737402.148         421.406         421.406         328.367         314.688   193056313.363 6 193056327.332 6 150433513.594 6 144165452.979 7        38.700          41.800          39.500          44.500
J02  36562609.664    36562609.563    36562614.074    36562618.285         453.035         453.035         353.016         338.309   192137811.316 7 192137806.327 8 149717878.030 8 143479552.685 8        47.300          51.300          50.600          53.100
J03  39112288.211    39112288.625    39112292.422    39112297.527        -246.348        -246.348        -191.961        -183.961   205536471.346 7 205536473.344 8 160158315.355 8 153485053.850 8        47.900          51.400          50.500          53.100
J07  36824998.297    36824997.250    36825001.531    36825006.539            .723            .723            .562            .539   193516686.227 6 193516677.250 7 150792237.729 8 144509238.109 8        39.800          44.100          48.400          52.300
R05  22133313.688    22133313.008    22133317.945    22133318.781         555.695         555.695         432.207         432.207   118315276.632 7 118315253.642 7  92022987.613 7  92023008.601 6        46.900          45.400          42.100          41.500
R06  22357290.297    22357288.969                                        3415.203        3415.203                                   119302804.046 6 119303008.067 5                                        36.200          34.300
R09  23724512.422    23724511.828    23724517.410    23724516.590       -4395.281       -4395.281       -3418.551       -3418.551   126687552.896 6 126687559.900 6  98534694.230 6  98534728.279 5        39.400          36.700          37.100          35.300
R10  20568145.711    20568144.805                                       -3008.711       -3008.711                                   109639791.538 8 109639786.540 7                                        49.000          47.900
R20  21958108.148    21958106.930    21958113.566    21958112.523       -1856.297       -1856.297       -1443.789       -1443.789   117419847.908 5 117419996.914 4  91326564.717 6  91326560.713 6        30.500          29.300          39.600          39.500
R21  21062935.531    21062934.457    21062939.898    21062939.871         234.438         234.438         182.340         182.340   112712061.305 8 112712047.306 8  87664939.797 7  87664972.786 7        49.400          48.500          44.700          44.600
> 2021 07 29 00 03 00.0000000  0 25
E01  24774302.641    24774308.656       -2175.719       -1624.727   130189853.970 8  97219725.028 8        49.100          50.500
E12  23918657.352    23918660.004        1022.691         763.695   125693403.382 7  93861977.851 7        42.100          44.000
E26  25749566.273    25749573.551       -1889.742       -1411.172   135314860.159 7 101046828.214 7        43.300          43.800
E31  23978023.930    23978029.809         559.195         417.578   126005369.684 8  94094944.605 8        50.700          51.300
E33  24069668.758    24069673.332        -729.672        -544.887   126486958.256 8  94454556.172 8        48.200          51.200
G01  20147042.273    20147051.0044   20147050.352    20147050.480        -905.074        -705.2544       -705.254        -675.867   105873444.308 8  82498814.10049  82498808.088 8  79061358.892 9        48.400          54.0004         49.400          54.700
G03  21246723.414    21246730.7114   21246731.313    21246733.215        2334.695        1819.2424       1819.242        1743.441   111652289.630 7  87001847.84548  87001840.847 7  83376773.727 8        47.200          49.8004         47.300          52.600
G07  23150476.227    23150482.2584   23150482.434                       -2278.559       -1775.5004      -1775.500                   121656606.803 6  94797338.38145  94797412.382 6                        38.800          35.2004         37.800
G08  22248748.789    22248757.7664   22248757.754    22248758.281       -1271.504        -990.7814       -990.781        -949.500   116917915.586 7  91104915.97745  91104915.973 7  87308878.237 8        44.400          33.6004         45.600          50.000
G14  22646950.617    22646955.8984   22646955.855    22646960.793        2909.129        2266.8554       2266.855        2172.402   119010586.209 7  92735497.21444  92735509.195 7  88871534.886 7        42.500          28.2004         42.000          47.500
G17  24297460.727    24297465.5044   24297466.023                        1950.562        1519.9184       1519.918                   127684002.392 5  99494065.09744  99494065.117 5                        34.500          27.3004         34.500
G21  21820447.656    21820451.8524                                      -2047.660       -1595.5824                                  114667207.919 7  89351076.67846                                        46.400          36.8004
G22  20784168.336    20784171.2774                                        475.438         370.4734                                  109221558.444 8  85107741.92746                                        49.100          41.4004
G27  24633576.891    24633587.2774   24633586.152    24633587.117       -2102.699       -1638.4694      -1638.469       -1570.199   129450254.419 6 100870353.52543 100870351.534 6  96667419.673 7        36.000          18.6004         38.100          42.100
G30  23473797.227    23473805.1954   23473804.480    23473806.289       -1039.750        -810.1954       -810.195        -776.438   123355661.180 6  96121304.81845  96121303.846 6  92116249.902 7        38.400          34.8004         40.800          46.200
J01  36734986.078    36734985.477    36734990.734    36734996.520         421.031         421.031         328.074         314.406   193043670.948 6 193043684.952 6 150423662.406 6 144156012.257 7        37.400          41.800          39.500          45.400
J02  36560030.305    36560030.145    36560034.953    36560039.238         450.316         450.316         350.895         336.273   192124258.195 8 192124253.196 8 149707317.147 8 143469431.842 8        48.200          51.200          50.100          53.200
J03  39113684.828    39113684.941    39113689.027    39113693.707        -243.070        -243.070        -189.406        -181.516   205543808.474 7 205543810.479 8 160164032.596 8 153490532.878 8        47.700          51.400          50.300          53.700
J07  36824992.672    36824992.254    36824996.379    36825001.676            .844            .844            .656            .629   193516660.212 6 193516651.205 7 150792217.437 8 144509218.668 8        40.200          44.100          48.200          52.100
R05  22130258.086    22130257.563    22130263.566    22130262.477         533.121         533.121         414.652         414.652   118298941.189 7 118298918.194 7  92010282.273 7  92010303.265 6        47.900          46.100          42.400          41.600
R06  22338106.422    22338104.832                                        3409.328        3409.328                                   119200433.426 5 119200637.424 5                                        35.200          35.200
R09  23749198.547    23749198.578    23749203.586    23749203.395       -4393.656       -4393.656       -3417.285       -3417.285   126819380.834 6 126819387.817 6  98637226.975 5  98637260.987 5        38.500          36.900          33.700          33.300
R10  20585126.461    20585124.840                                       -3025.910       -3025.910                                   109730307.187 8 109730302.181 7                                        48.600          47.800
R20  21968517.680    21968515.129    21968520.559    21968520.254       -1854.223       -1854.223       -1442.172       -1442.172   117475503.196 5 117475652.196 5  91369852.063 6  91369848.067 6        32.300          31.600          39.200          38.900
R21  21061630.766    21061629.930    21061634.273    21061634.754         230.988         230.988         179.656         179.656   112705077.506 8 112705063.515 8  87659507.919 7  87659540.930 7        50.000          49.100          45.800          45.000
> 2021 07 29 00 03 30.0000000  0 25
E01  24786750.547    24786756.773       -2185.387       -1631.945   130255268.787 8  97268573.740 8        48.900          50.400
E12  23912834.617    23912837.348        1017.227         759.617   125662803.980 7  93839127.677 7        42.100          44.500
E26  25760349.539    25760357.465       -1887.934       -1409.820   135371525.562 7 101089143.248 7        42.700          44.500
E31  23974869.797    23974876.074         545.703         407.504   125988794.408 8  94082566.946 8        50.700          51.300
E33  24073842.688    24073847.207        -732.668        -547.121   126508891.371 8  94470934.781 8        48.700          51.300
G01  20152242.820    20152250.7774   20152250.500    20152250.547        -916.809        -714.3954       -714.395        -684.629   105900771.327 8  82520107.88848  82520101.884 8  79081765.442 9        48.800          53.7004         49.700          54.600
G03  21233436.906    21233444.1024   21233444.813    21233446.586        2319.863        1807.6844       1807.684        1732.363   111582467.534 8  86947441.03648  86947434.026 7  83324633.876 8        48.100          50.1004         47.400          52.800
G07  23163498.414    23163503.3284   23163503.480                       -2283.211       -1779.1254      -1779.125                   121725032.771 6  94850657.28545  94850731.313 6                        38.800          34.6004         37.700
G08  22256022.719    22256030.4454   22256030.746    22256030.965       -1276.723        -994.8524       -994.852        -953.398   116956135.662 7  91134697.83845  91134697.818 7  87337419.188 8        44.100          33.6004         45.600          50.100
G14  22630368.195    22630373.6564   22630373.121    22630378.375        2900.055        2259.7814       2259.781        2165.625   118923445.474 6  92667595.33644  92667607.327 7  88806462.240 8        41.700          28.9004         42.900          48.000
G17  24286317.359    24286323.1484   24286323.438                        1952.957        1521.7854       1521.785                   127625445.262 5  99448436.20244  99448436.235 5                        34.700          28.1004         35.900
G21  21832143.398    21832148.0704                                      -2049.965       -1597.3754                                  114728670.994 7  89398969.95546                                        46.400          36.3004
G22  20781508.156    20781511.2774                                        456.383         355.6214                                  109207579.738 8  85096849.43246                                        48.700          41.2004
G27  24645589.867    24645599.5354   24645599.809    24645599.902       -2105.820       -1640.8984      -1640.898       -1572.527   129513383.520 5 100919544.97643 100919543.013 6  96714561.477 6        34.300          19.0004         37.800          41.200
G30  23479768.383    23479775.8554   23479776.688    23479777.566       -1052.277        -819.9574       -819.957        -785.789   123387041.452 6  96145756.96645  96145755.967 6  92139683.210 7        38.600          35.2004         39.500          45.800
J01  36732582.313    36732582.566    36732587.336    36732593.781         420.551         420.551         327.703         314.047   193031042.717 6 193031056.732 6 150413822.243 6 144146582.103 7        37.700          41.600          39.500          45.300
J02  36557467.109    36557467.371    36557472.145    36557476.227         447.477         447.477         348.680         334.152   192110789.627 8 192110784.623 8 149696822.149 8 143459374.129 8        48.800          51.400          50.800          53.200
J03  39115063.727    39115063.766    39115067.621    39115072.652        -240.148        -240.148        -187.129        -179.332   205551054.382 7 205551056.392 8 160169678.759 8 153495943.779 8        47.200          51.500          50.500          53.400
J07  36824987.945    36824987.336    36824991.449    36824996.625            .809            .809            .633            .605   193516634.430 6 193516625.428 7 150792197.349 8 144509199.417 8        40.200          44.300          48.400          52.400
R05  22127328.859    22127328.508    22127333.871    22127334.430         510.273         510.273         396.879         396.879   118283287.446 7 118283264.434 7  91998107.122 6  91998128.129 6        46.600          45.500          41.300          41.400
R06  22318954.805    22318952.961                                        3403.430        3403.430                                   119098237.686 5 119098441.692 5                                        34.900          34.500
R09  23773877.828    23773877.168    23773884.777    23773882.320       -4392.168       -4392.168       -3416.133       -3416.133   126951164.521 6 126951171.485 5  98739725.257 5  98739759.303 5        36.900          35.400          35.100          34.500
R10  20602204.820    20602202.805                                       -3043.133       -3043.133                                   109821340.930 8 109821335.938 7                                        49.600          47.900
R20  21978914.703    21978912.398    21978918.945    21978918.488       -1852.492       -1852.492       -1440.828       -1440.828   117531101.195 5 117531250.207 5  91413094.951 6  91413090.940 6        32.200          31.000          40.400          40.200
